[
  {
    "id": "parsley-bay",
    "name": "Parsley Bay Swimming Enclosure, Vaucluse",
    "suburb": "Parsley Bay",
    "lat": -33.851478445440314,
    "lng": 151.2775158904059, 
    "stamp": "stamps/parsley-bay.png"
  },
  {
    "id": "nielsen-park",
    "name": "Nielsen Park \u2013 Shark Beach, Vaucluse",
    "suburb": "Nielsen Park",
    "lat": -33.850562,
    "lng":151.267464,
    "stamp": "stamps/nielsen-park.png"
  },
  {
    "id": "watsons-bay",
    "name": "Watsons Bay Baths, Watsons Bay",
    "suburb": "Watsons Bay",
    "lat": -33.845036171452385,
    "lng": 151.2814804824114,
    "stamp": "stamps/watsons-bay.png"
  },
  {
    "id": "woollahra-redleaf",
    "name": "Murray Rose Pool (Redleaf), Double Bay",
    "suburb": "Woollahra",
    "lat": -33.87150832597563,
    "lng":151.2471645018027,
    "stamp": "stamps/woollahra.png"
  },
  {
    "id": "barangaroo",
    "name": "Marrinawi Cove, Barangaroo",
    "suburb": "Barangaroo",
    "lat":-33.85538212709025,
    "lng": 151.20195305876618, 
    "stamp": "stamps/barangaroo.png"
  },
  {
    "id": "cremorne-point",
    "name": "Maccallum Seawater Pool, Cremorne Point",
    "suburb": "Cremorne Point",
    "lat": -33.84529836233467,
    "lng": 151.22808678594717, 
    "stamp": "stamps/cremorne-point.png"
  },
  {
    "id": "balmoral",
    "name": "Balmoral Baths, Mosman",
    "suburb": "Balmoral",
    "lat":-33.82290192335102,
    "lng": 151.25165013691387, 
    "stamp": "stamps/balmoral.png"
  },
  {
    "id": "clifton-gardens",
    "name": "Clifton Gardens (Chowder Bay) netted enclosure, Mosman",
    "suburb": "Clifton Gardens",
    "lat": -33.8395530388588,
    "lng": 151.25247249898902,
    "stamp": "stamps/clifton-gardens.png"
  },
  {
    "id": "northbridge",
    "name": "Northbridge Baths, Sailors Bay",
    "suburb": "Northbridge",
    "lat": -33.80636176696457,
    "lng": 151.22191926469534, 
    "stamp": "stamps/northbridge.png"
  },
  {
    "id": "greenwich",
    "name": "Greenwich Baths, Greenwich",
    "suburb": "Greenwich",
    "lat": -33.841147628428715,
    "lng": 151.18295938891552,
    "stamp": "stamps/greenwich.png"
  },
  {
    "id": "little-manly",
    "name": "Little Manly Cove tidal/netted pool, Manly",
    "suburb": "Little Manly",
    "lat":  -33.80659887761168,
    "lng": 151.28662503302417, 
    "stamp": "stamps/little-manly-cove.png"
  },
  {
    "id": "balgowlah-forty-baskets",
    "name": "Forty Baskets Beach netted enclosure, Balgowlah",
    "suburb": "Balgowlah",
    "lat": -33.803334195910615,
    "lng":  151.27009214800427,
    "stamp": "stamps/balgowlah.png"
  },
  {
    "id": "woolwich",
    "name": "Woolwich Baths (Lane Cove River)",
    "suburb": "Woolwich",
    "lat":  -33.839379,
    "lng":  151.169480,
    "stamp": "stamps/woolwich.png"
  },
  {
    "id": "chiswick",
    "name": "Chiswick Baths (Parramatta River)",
    "suburb": "Chiswick",
    "lat":  -33.847269,
    "lng": 151.142649,
    "stamp": "stamps/chiswick.png"
  },
  {
    "id": "balmain",
    "name": "Dawn Fraser Baths, Balmain",
    "suburb": "Balmain",
    "lat": -33.853774020598166,
    "lng": 151.1734427426911,
    "stamp": "stamps/balmain.png"
  },
  {
  "id": "putney-beach",
  "name": "Putney Beach, Putney",
  "suburb": "Putney",
  "lat": -33.831835266887474,
  "lng": 151.10868035925714, 
  "stamp": "stamps/putney-beach.png"
}

]
